[
  {
    "title": "Μουσείο Αγροτικής Ζώης Ακάμα - Κοινοτικό Συμβούλιο Δρούσειας",
    "content": "",
    "image": null,
    "gallery": [],
    "lat": 34.959863,
    "lng": 32.397797
  },
  {
    "title": "Εκκλησία Αγίου Επιφανίου",
    "content": "",
    "image": null,
    "gallery": [],
    "lat": 34.962663,
    "lng": 32.397547
  },
  {
    "title": "Κέντρο Νεότητας / Πολιτιστικό Κέντρο",
    "content": "",
    "image": null,
    "gallery": [],
    "lat": 34.962806,
    "lng": 32.397444
  },
  {
    "title": "Θεατράκι και Παραδοσιακή Βρύση",
    "content": "",
    "image": null,
    "gallery": [],
    "lat": 34.959863,
    "lng": 32.397797
  },
  {
    "title": "Πέτρα του Νικολά",
    "content": "",
    "image": null,
    "gallery": [],
    "lat": 34.967306,
    "lng": 32.394056
  },
  {
    "title": "Θέα προς Κόλπο Πόλης Χρυσοχούς",
    "content": "",
    "image": null,
    "gallery": [],
    "lat": 34.972944,
    "lng": 32.390694
  },
  {
    "title": "Πέτρα",
    "content": "",
    "image": null,
    "gallery": [],
    "lat": 34.973444,
    "lng": 32.389667
  },
  {
    "title": "Θεα προς αγροτικο τοπιο και γεωμορφωματα",
    "content": "",
    "image": null,
    "gallery": [],
    "lat": 34.973278,
    "lng": 32.389194
  },
  {
    "title": "Αργάκι (Αργάκι επι της διαδρομής)",
    "content": "",
    "image": null,
    "gallery": [],
    "lat": 34.974194,
    "lng": 32.382861
  },
  {
    "title": "Βρύση - Καραμόνα",
    "content": "",
    "image": null,
    "gallery": [],
    "lat": 34.984056,
    "lng": 32.376028
  },
  {
    "title": "Οικισμός Πιττόκοπος",
    "content": "",
    "image": null,
    "gallery": [],
    "lat": 34.976417,
    "lng": 32.376917
  },
  {
    "title": "Θέα προς Κόλπους Λάρας",
    "content": "",
    "image": null,
    "gallery": [],
    "lat": 34.971988,
    "lng": 32.374484
  },
  {
    "title": "Σημείο θέας για Κ.Α.Ρ.Η",
    "content": "",
    "image": null,
    "gallery": [],
    "lat": 34.966528,
    "lng": 32.385556
  },
  {
    "title": "Εξωκλήσι Αγίου Λουκά",
    "content": "",
    "image": null,
    "gallery": [],
    "lat": 34.966513,
    "lng": 32.385766
  },
  {
    "title": "Μουσείο Αγροτικής Ζώης Ακάμα - Κοινοτικό Συμβούλιο Δρούσειας",
    "content": "",
    "image": null,
    "gallery": [],
    "lat": 34.959863,
    "lng": 32.397797
  }
]
